,City,Latitude,Longitude,Temperature,Humidity,Cloudiness,Wind Speed,Country,Date
0,victoria,22.2855,114.1577,81.07,90,67,7.0,HK,1634144316
1,bereda,43.2686,-7.5406,65.88,72,1,4.63,ES,1634144452
2,brae,60.3964,-1.353,53.51,85,100,23.26,GB,1634144452
3,pundaguitan,6.3711,126.1689,83.8,76,100,13.44,PH,1634144453
4,grindavik,63.8424,-22.4338,41.47,75,75,19.57,IS,1634144453
5,uige,-7.6087,15.0613,71.67,85,87,4.92,AO,1634144453
6,baturaja,-4.1333,104.1667,74.66,97,100,2.04,ID,1634144454
7,high level,58.5169,-117.136,41.38,56,27,7.94,CA,1634144454
8,qaanaaq,77.484,-69.3632,30.56,87,100,4.54,GL,1634144455
9,srednekolymsk,67.45,153.6833,13.08,96,100,4.61,RU,1634144455
10,punta arenas,-53.15,-70.9167,50.11,50,40,28.77,CL,1634144226
11,hambantota,6.1241,81.1185,80.73,78,56,19.53,LK,1634144456
12,tuktoyaktuk,69.4541,-133.0374,30.47,97,100,15.68,CA,1634144456
13,riverton,40.5219,-111.9391,43.03,62,1,4.0,US,1634144457
14,vaini,-21.2,-175.2,72.03,58,93,6.38,TO,1634144457
15,busselton,-33.65,115.3333,45.05,86,0,10.07,AU,1634144458
16,ushuaia,-54.8,-68.3,51.46,50,40,13.8,AR,1634144228
17,hermanus,-34.4187,19.2345,64.8,73,100,5.93,ZA,1634144458
18,tiksi,71.6872,128.8694,19.69,91,97,12.55,RU,1634144459
19,bani,18.2833,-70.3333,87.85,64,100,6.22,DO,1634144459
20,medina del campo,41.3124,-4.9141,69.53,26,0,10.49,ES,1634144460
21,saint-philippe,-21.3585,55.7679,73.92,86,53,7.96,RE,1634144460
22,mataura,-46.1927,168.8643,41.25,80,100,2.04,NZ,1634144460
23,hobart,-42.8794,147.3294,51.91,84,90,1.01,AU,1634144334
24,albany,42.6001,-73.9662,65.61,77,3,1.16,US,1634144402
25,rikitea,-23.1203,-134.9692,74.21,75,98,7.27,PF,1634144461
26,aqtobe,50.2797,57.2072,48.29,37,0,11.18,KZ,1634144462
27,bredasdorp,-34.5322,20.0403,63.28,82,99,5.95,ZA,1634144463
28,lebu,-37.6167,-73.65,56.7,75,95,18.99,CL,1634144463
29,port elizabeth,-33.918,25.5701,65.1,85,94,3.13,ZA,1634144401
30,monroe,43.1501,-77.6831,70.63,75,59,4.0,US,1634144464
31,bluff,-46.6,168.3333,47.17,76,100,6.11,NZ,1634144464
32,kapaa,22.0752,-159.319,74.12,81,90,3.0,US,1634144465
33,praya,14.9215,-23.5087,79.66,70,34,16.22,CV,1634144465
34,ocean city,39.2776,-74.5746,70.41,78,3,1.01,US,1634144466
35,saldanha,-33.0117,17.9442,61.02,88,99,17.96,ZA,1634144466
36,souillac,-20.5167,57.5167,73.36,81,34,7.83,MU,1634144466
37,port alfred,-33.5906,26.891,66.13,86,94,7.83,ZA,1634144467
38,atuona,-9.8,-139.0333,76.87,78,49,17.83,PF,1634144287
39,bom jesus,-9.0744,-44.3586,95.59,32,88,4.99,BR,1634144467
40,solnechnyy,50.7214,136.6319,44.51,76,100,4.18,RU,1634144468
41,belmonte,-15.8631,-38.8828,75.7,95,100,3.38,BR,1634144468
42,jamestown,42.097,-79.2353,69.26,71,48,3.0,US,1634144423
43,altay,47.8667,88.1167,28.29,64,12,7.61,CN,1634144469
44,murray bridge,-35.1167,139.2667,51.21,68,97,6.31,AU,1634144469
45,olinda,-8.0089,-34.8553,83.93,65,40,10.36,BR,1634144469
46,antalaha,-14.9003,50.2788,72.03,90,84,6.55,MG,1634144470
47,tuy hoa,13.0833,109.3,78.46,84,100,5.73,VN,1634144274
48,georgetown,5.4112,100.3354,82.33,74,66,0.0,MY,1634144470
49,nishihara,26.1842,127.7558,79.88,78,75,6.91,JP,1634144471
50,carnarvon,-24.8667,113.6333,67.69,67,0,15.01,AU,1634144471
51,hilo,19.7297,-155.09,72.09,97,90,1.01,US,1634144471
52,yellowknife,62.456,-114.3525,47.41,78,100,14.29,CA,1634144472
53,east london,-33.0153,27.9116,68.41,82,99,9.53,ZA,1634144472
54,saint anthony,45.0205,-93.218,60.44,83,75,7.0,US,1634144473
55,bengkulu,-3.8004,102.2655,75.78,93,100,3.58,ID,1634144473
56,mahebourg,-20.4081,57.7,73.26,79,38,7.45,MU,1634144474
57,san antonio,29.4241,-98.4936,83.75,75,94,3.0,US,1634144412
58,barrow,71.2906,-156.7887,28.42,80,90,18.41,US,1634144474
59,gisborne,-38.6533,178.0042,47.95,78,84,20.45,NZ,1634144475
60,lalganj,25.8667,85.1833,78.75,67,0,6.71,IN,1634144475
61,pangai,-19.8,-174.35,73.71,55,97,1.19,TO,1634144475
62,kavieng,-2.5744,150.7967,82.72,73,98,12.39,PG,1634144476
63,sistranda,63.7256,8.834,44.56,69,100,13.06,NO,1634144301
64,pevek,69.7008,170.3133,19.45,92,100,3.51,RU,1634144476
65,hovd,48.0056,91.6419,32.81,37,0,2.35,MN,1634144477
66,lokosovo,61.1333,74.8167,34.09,98,100,5.37,RU,1634144477
67,ulaangom,49.9811,92.0667,33.87,54,50,4.09,MN,1634144478
68,mayo,38.8876,-76.5119,71.22,90,18,4.0,US,1634144478
69,dikson,73.5069,80.5464,27.39,90,100,27.54,RU,1634144479
70,avarua,-21.2078,-159.775,75.25,73,40,12.66,CK,1634144479
71,ulladulla,-35.35,150.4667,62.44,96,98,8.93,AU,1634144480
72,pochutla,15.7432,-96.4661,90.82,58,74,4.45,MX,1634144480
73,vardo,70.3705,31.1107,33.78,80,0,12.66,NO,1634144480
74,chokurdakh,70.6333,147.9167,14.72,96,100,6.4,RU,1634144481
75,hit,33.6416,42.8251,81.64,36,100,9.06,IQ,1634144481
76,vanimo,-2.6741,141.3028,78.06,90,98,2.75,PG,1634144482
77,mbandaka,0.0487,18.2603,78.78,69,88,1.5,CD,1634144482
78,noumea,-22.2763,166.4572,73.0,99,20,7.14,NC,1634144404
79,takoradi,4.8845,-1.7554,83.1,77,62,11.81,GH,1634144483
80,tocopilla,-22.092,-70.1979,68.0,65,13,15.5,CL,1634144456
81,leningradskiy,69.3833,178.4167,14.9,96,94,5.57,RU,1634144483
82,tuatapere,-46.1333,167.6833,40.75,81,86,2.01,NZ,1634144484
83,palia kalan,28.45,80.5833,75.06,57,0,4.72,IN,1634144484
84,naliya,23.2667,68.8333,83.59,52,0,7.07,IN,1634144485
85,sao miguel do tapuio,-5.5036,-41.3233,103.69,14,42,8.63,BR,1634144485
86,ballina,-28.8667,153.5667,64.44,83,97,10.65,AU,1634144485
87,skowhegan,44.7651,-69.7192,72.28,76,99,4.79,US,1634144486
88,kovur,14.4833,79.9833,83.43,75,95,3.53,IN,1634144486
89,vibo valentia,38.6996,16.1274,53.74,89,100,8.97,IT,1634144487
90,cayenne,4.9333,-52.3333,85.08,76,75,5.99,GF,1634144487
91,ibra,22.6906,58.5334,84.42,22,0,0.98,OM,1634144488
92,nuuk,64.1835,-51.7216,34.41,93,90,9.22,GL,1634144488
93,kiunga,-6.1219,141.2906,73.36,100,99,2.37,PG,1634144489
94,muros,42.7762,-9.0603,70.39,55,0,0.67,ES,1634144489
95,meulaboh,4.1363,96.1285,77.77,83,65,1.14,ID,1634144490
96,upernavik,72.7868,-56.1549,36.43,73,100,2.91,GL,1634144490
97,zhigansk,66.7697,123.3711,13.5,96,98,8.66,RU,1634144490
98,lagoa,39.05,-27.9833,70.09,71,43,5.41,PT,1634144491
99,buala,-8.145,159.5921,79.59,80,58,2.1,SB,1634144491
100,asau,46.4333,26.4,46.63,72,100,3.09,RO,1634144492
101,wenden,50.9667,7.8667,45.55,96,95,3.51,DE,1634144492
102,kodiak,57.79,-152.4072,42.84,82,96,5.28,US,1634144492
103,saskylakh,71.9167,114.0833,5.77,98,93,5.19,RU,1634144493
104,tasiilaq,65.6145,-37.6368,35.76,56,33,1.12,GL,1634144493
105,namibe,-15.1961,12.1522,67.73,83,33,8.86,AO,1634144494
106,mlowo,-9.0,32.9833,66.18,65,64,2.26,TZ,1634144495
107,loukhi,66.0764,33.0381,37.09,88,53,2.06,RU,1634144496
108,hithadhoo,-0.6,73.0833,82.99,76,68,18.97,MV,1634144496
109,touros,-5.1989,-35.4608,84.36,63,75,17.18,BR,1634144475
110,mukhen,48.1,136.1,48.72,58,100,7.09,RU,1634144497
111,nanning,22.8167,108.3167,67.39,80,100,16.82,CN,1634144407
112,faanui,-16.4833,-151.75,79.88,77,100,8.14,PF,1634144497
113,butaritari,3.0707,172.7902,80.67,71,0,10.74,KI,1634144498
114,sao joao da barra,-21.6403,-41.0511,77.09,75,15,9.35,BR,1634144314
115,ribeira grande,38.5167,-28.7,72.0,83,75,11.5,PT,1634144498
116,drayton valley,53.2168,-114.9854,38.91,64,87,6.96,CA,1634144499
117,zolotkovo,55.5281,41.1053,49.6,57,100,7.23,RU,1634144499
118,luangwa,-15.6167,30.4167,76.28,25,0,2.89,ZM,1634144499
119,castro,-24.7911,-50.0119,76.86,47,12,0.87,BR,1634144500
120,katangli,51.7102,143.2326,44.15,74,100,2.57,RU,1634144500
121,lavrentiya,65.5833,-171.0,27.63,81,99,8.23,RU,1634144501
122,suntar,62.1444,117.6319,21.7,72,48,5.57,RU,1634144501
123,hervey bay,-25.2986,152.8535,71.02,86,59,9.73,AU,1634144501
124,davila,18.4726,120.5763,81.91,78,100,3.33,PH,1634144502
125,thompson,55.7435,-97.8558,41.16,100,90,5.75,CA,1634144234
126,bellavista,-7.0561,-76.5911,95.88,40,82,2.93,PE,1634144502
127,salalah,17.0151,54.0924,79.65,69,10,3.04,OM,1634144503
128,lata,40.1629,-8.3327,72.79,25,0,4.32,PT,1634144503
129,henties bay,-22.116,14.2845,61.86,91,32,10.36,NA,1634144503
130,oussouye,12.485,-16.5469,89.15,56,90,5.68,SN,1634144504
131,yeppoon,-23.1333,150.7333,73.18,92,1,9.37,AU,1634144504
132,necochea,-38.5473,-58.7368,67.03,76,100,3.4,AR,1634144235
133,umkomaas,-30.2067,30.7978,80.6,75,59,6.46,ZA,1634144505
134,bontang,0.1333,117.5,80.92,82,82,2.82,ID,1634144505
135,manaure,11.7751,-72.4445,86.02,68,95,5.7,CO,1634144506
136,sadri,25.1833,73.4333,80.62,33,0,1.83,IN,1634144506
137,qinhuangdao,39.9317,119.5883,58.84,60,81,6.13,CN,1634144506
138,quatre cocos,-20.2078,57.7625,73.09,79,58,7.18,MU,1634144507
139,geraldton,-28.7667,114.6,50.41,93,4,6.91,AU,1634144507
140,guarapari,-20.6667,-40.4975,80.49,80,18,6.62,BR,1634144313
141,lompoc,34.6391,-120.4579,59.97,59,1,5.99,US,1634144508
142,san francisco,37.7749,-122.4194,57.31,77,43,4.0,US,1634144478
143,husavik,66.0449,-17.3389,36.59,92,100,16.84,IS,1634144508
144,rawson,-43.3002,-65.1023,68.22,33,71,3.56,AR,1634144457
145,pauini,-7.7136,-66.9764,95.4,40,83,5.75,BR,1634144509
146,norman wells,65.282,-126.8329,24.46,92,88,4.07,CA,1634144509
147,ayagoz,47.9714,80.4392,34.57,53,0,12.75,KZ,1634144510
148,marzuq,14.4,46.4667,79.97,37,54,0.83,YE,1634144510
149,manthani,18.65,79.6667,77.14,73,90,4.65,IN,1634144511
150,zadonsk,52.3904,38.9261,59.14,36,100,13.58,RU,1634144511
151,ponta do sol,32.6667,-17.1,74.61,74,71,2.1,PT,1634144512
152,labuhan,-6.8844,112.2051,79.03,73,77,10.11,ID,1634144512
153,new norfolk,-42.7826,147.0587,50.32,72,100,2.46,AU,1634144512
154,flin flon,54.7682,-101.865,40.84,93,90,8.05,CA,1634144513
155,grenada,37.1882,-3.6067,75.9,29,20,8.05,ES,1634144513
156,eloszallas,46.8309,18.8348,48.24,56,52,12.19,HU,1634144513
157,lorengau,-2.0226,147.2712,82.6,77,100,8.48,PG,1634144514
158,satun,6.8333,100.0,80.6,90,100,1.86,TH,1634144514
159,janakkala,60.9,24.6,41.88,89,85,3.24,FI,1634144515
160,shwebo,22.5667,95.7,81.01,80,28,1.5,MM,1634144515
161,sao felix do xingu,-6.6447,-51.995,89.85,48,68,3.33,BR,1634144445
162,faya,18.3851,42.4509,66.56,22,77,7.34,SA,1634144515
163,tongzi,28.7829,105.0877,63.91,88,100,1.66,CN,1634144516
164,anlu,31.1661,112.5831,67.3,49,92,10.38,CN,1634144516
165,roma,43.2128,-75.4557,67.42,88,90,3.44,US,1634144403
166,cape town,-33.9258,18.4232,64.85,58,100,7.0,ZA,1634144517
167,sinjar,36.3209,41.8754,75.97,42,100,5.32,IQ,1634144517
168,colares,38.7992,-9.4469,75.27,49,0,11.5,PT,1634144517
169,ilulissat,69.2167,-51.1,44.62,36,75,5.75,GL,1634144518
170,khatanga,71.9667,102.5,5.29,98,97,7.29,RU,1634144518
171,sembakung,3.8167,117.25,75.4,98,94,0.74,ID,1634144519
172,abu dhabi,24.4667,54.3667,89.64,58,0,12.08,AE,1634144519
173,zhanakorgan,43.9098,67.2495,52.59,26,0,11.81,KZ,1634144519
174,chuy,-33.6971,-53.4616,71.38,68,100,6.49,UY,1634144520
175,umm lajj,25.0213,37.2685,86.59,48,0,6.82,SA,1634144520
176,morondava,-20.2833,44.2833,77.22,80,58,15.66,MG,1634144521
177,escanaba,45.7453,-87.0646,62.62,82,75,5.75,US,1634144521
178,campbell river,50.0163,-125.2446,40.28,98,75,3.44,CA,1634144302
179,kikugawa,34.7563,138.0874,66.76,93,98,6.29,JP,1634144522
180,goksun,38.021,36.4973,59.95,87,97,5.08,TR,1634144523
181,havre-saint-pierre,50.2334,-63.5986,50.56,90,100,7.29,CA,1634144524
182,bandundu,-3.3167,17.3667,80.37,67,36,4.05,CD,1634144524
183,qandala,11.472,49.8728,82.98,72,57,3.22,SO,1634144524
184,clyde river,70.4692,-68.5914,32.86,89,99,1.95,CA,1634144525
185,la ronge,55.1001,-105.2842,39.78,65,2,7.14,CA,1634144525
186,port lincoln,-34.7333,135.8667,49.8,86,76,11.48,AU,1634144525
187,omboue,-1.5746,9.2618,78.73,85,86,10.8,GA,1634144526
188,fort nelson,58.8053,-122.7002,38.88,56,68,2.19,CA,1634144457
189,arraial do cabo,-22.9661,-42.0278,71.56,86,5,17.78,BR,1634144526
190,fatick,14.3581,-16.5858,85.14,30,93,8.9,SN,1634144527
191,moose factory,51.2585,-80.6094,51.78,93,90,9.22,CA,1634144527
192,nouadhibou,20.931,-17.0347,69.19,84,60,22.24,MR,1634144528
193,swift current,50.2834,-107.8014,38.3,72,98,7.4,CA,1634144528
194,halmstad,56.6745,12.8568,46.15,81,20,3.44,SE,1634144528
195,coquimbo,-29.9533,-71.3436,61.88,65,0,10.18,CL,1634144514
196,iquitos,-3.7481,-73.2472,89.64,62,75,5.75,PE,1634144260
197,karlskrona,56.1616,15.5866,43.25,56,99,4.47,SE,1634144529
198,jizan,17.3333,42.6667,89.15,56,52,6.13,SA,1634144529
199,riberalta,-10.9833,-66.1,102.72,29,29,6.49,BO,1634144530
200,beringovskiy,63.05,179.3167,21.2,80,100,9.82,RU,1634144531
201,nikolskoye,59.7035,30.7861,44.26,90,74,4.65,RU,1634144531
202,chernyshevskiy,63.0128,112.4714,18.46,89,100,7.74,RU,1634144531
203,cherskiy,68.75,161.3,-7.74,93,60,1.43,RU,1634144532
204,manjacaze,-24.7117,33.8828,76.87,39,0,8.25,MZ,1634144532
205,carutapera,-1.195,-46.02,87.44,56,47,11.1,BR,1634144532
206,farkhor,37.4922,69.4036,53.65,27,0,1.77,TJ,1634144533
207,kirakira,-10.4544,161.9205,78.39,81,14,0.65,SB,1634144533
208,zavitinsk,50.1167,129.45,47.64,84,97,9.95,RU,1634144534
209,merauke,-8.4667,140.3333,78.55,87,94,10.25,ID,1634144534
210,abonnema,4.7084,6.7931,75.34,94,100,7.36,NG,1634144535
211,saint george,37.1041,-113.5841,51.64,57,1,1.01,US,1634144261
212,kaitangata,-46.2817,169.8464,43.39,81,99,5.86,NZ,1634144535
213,araouane,18.9048,-3.5265,99.3,7,1,7.47,ML,1634144536
214,concarneau,47.875,-3.9225,63.95,67,47,1.48,FR,1634144536
215,chekhov,55.1431,37.4711,46.56,80,100,4.52,RU,1634144536
216,pacific grove,36.6177,-121.9166,56.16,74,6,3.0,US,1634144537
217,seddon,-37.8068,144.8916,48.88,93,75,1.99,AU,1634144537
218,beloha,-25.1667,45.05,69.58,79,0,9.89,MG,1634144538
219,aquiraz,-3.9014,-38.3911,86.59,55,95,14.79,BR,1634144276
220,bubaque,11.2833,-15.8333,84.07,72,100,5.86,GW,1634144538
221,pandan,14.0453,124.1694,79.41,85,100,3.94,PH,1634144539
222,los llanos de aridane,28.6585,-17.9182,70.12,81,40,10.36,ES,1634144539
223,mount isa,-20.7333,139.5,76.77,44,75,5.75,AU,1634144442
224,nova londrina,-22.7658,-52.985,88.16,39,1,9.24,BR,1634144540
225,lewistown,40.5992,-77.5714,70.93,94,90,0.0,US,1634144540
226,pangnirtung,66.1451,-65.7125,34.27,92,100,8.21,CA,1634144541
227,havelock,34.8791,-76.9013,72.86,85,57,5.66,US,1634144541
228,skibotn,69.3913,20.2679,37.35,92,93,3.96,NO,1634144541
229,cockburn town,21.4612,-71.1419,82.11,76,38,8.66,TC,1634144542
230,oskarshamn,57.2645,16.4484,38.97,62,48,5.86,SE,1634144542
231,punakha,27.5837,89.8598,67.59,67,70,2.66,BT,1634144543
232,la roche-sur-yon,46.6667,-1.4333,59.27,67,20,6.91,FR,1634144543
233,fort morgan,40.2503,-103.8,48.92,43,1,0.0,US,1634144543
234,athabasca,54.7169,-113.2854,35.15,42,36,8.37,CA,1634144377
235,mokrousovo,55.8103,66.7653,45.91,78,19,4.68,RU,1634144544
236,dali,25.7,100.1833,61.16,81,69,2.15,CN,1634144544
237,buraydah,26.326,43.975,88.38,12,0,8.1,SA,1634144545
238,yulara,-25.2406,130.9889,55.81,36,0,12.15,AU,1634144545
239,esperance,-33.8667,121.9,55.08,74,100,12.12,AU,1634144546
240,mercedes,-34.6515,-59.4307,61.25,87,100,3.76,AR,1634144546
241,narsaq,60.9167,-46.05,41.22,51,3,1.81,GL,1634144546
242,nelson bay,-32.7167,152.15,63.07,82,64,4.0,AU,1634144322
243,ormara,25.2088,64.6357,82.04,50,0,9.04,PK,1634144547
244,alugan,12.2188,125.4808,78.64,87,100,1.61,PH,1634144547
245,korla,41.7597,86.1469,51.03,36,0,10.07,CN,1634144430
246,mackay,-21.15,149.2,75.22,88,75,9.22,AU,1634144410
247,rebrikha,53.0733,82.3408,35.37,98,98,4.83,RU,1634144548
248,bathsheba,13.2167,-59.5167,84.74,71,9,17.69,BB,1634144548
249,kisangani,0.5167,25.2,73.35,82,100,1.54,CD,1634144549
250,oshawa,43.9001,-78.8496,69.8,82,90,1.99,CA,1634144328
251,provideniya,64.3833,-173.3,25.05,83,46,5.64,RU,1634144549
252,longyearbyen,78.2186,15.6401,28.24,74,75,8.05,SJ,1634144550
253,mar del plata,-38.0023,-57.5575,57.99,49,100,4.0,AR,1634144430
254,cochrane,51.1834,-114.4687,36.66,77,62,11.79,CA,1634144550
255,kasongo-lunda,-6.4667,16.8167,77.67,70,82,2.19,CD,1634144551
256,ustye,59.6304,39.736,44.98,90,100,8.39,RU,1634144551
257,codrington,-38.2667,141.9667,44.55,97,100,7.92,AU,1634144551
258,severo-kurilsk,50.6789,156.125,46.0,88,100,15.59,RU,1634144552
259,samarai,-10.6167,150.6667,79.79,84,74,7.56,PG,1634144552
260,reconquista,-29.15,-59.65,71.22,84,71,6.08,AR,1634144416
261,vestmannaeyjar,63.4427,-20.2734,45.59,81,40,18.41,IS,1634144553
262,walla walla,46.0646,-118.343,45.73,80,100,5.99,US,1634144416
263,rio grande,-32.035,-52.0986,74.95,80,100,10.6,BR,1634144276
264,comodoro rivadavia,-45.8667,-67.5,66.06,30,0,17.27,AR,1634144553
265,alpena,45.0617,-83.4327,66.6,77,90,1.99,US,1634144554
266,kununurra,-15.7667,128.7333,76.98,78,21,3.44,AU,1634144375
267,dauriya,49.9333,116.8667,35.96,78,21,13.15,RU,1634144554
268,makakilo city,21.3469,-158.0858,76.71,71,75,4.61,US,1634144555
269,coihaique,-45.5752,-72.0662,46.35,81,90,13.8,CL,1634144342
270,severo-yeniseyskiy,60.3725,93.0408,18.41,81,71,2.01,RU,1634144555
271,evensk,61.95,159.2333,22.5,80,98,12.59,RU,1634144556
272,najran,17.4924,44.1277,75.69,15,1,5.5,SA,1634144556
273,torbay,47.6666,-52.7314,47.07,89,70,5.99,CA,1634144556
274,karangasem,-8.45,115.6167,77.14,82,65,7.29,ID,1634144557
275,bilma,18.6853,12.9164,90.95,10,69,8.23,NE,1634144557
276,dunedin,-45.8742,170.5036,45.81,72,99,8.01,NZ,1634144445
277,jibuti,11.5,42.5,82.26,53,19,12.44,DJ,1634144557
278,puerto ayora,-0.7393,-90.3518,71.04,77,85,10.98,EC,1634144558
279,hasaki,35.7333,140.8333,61.21,81,100,17.94,JP,1634144558
280,nawalapitiya,7.0559,80.5348,69.17,93,78,2.66,LK,1634144559
281,cam ranh,11.9214,109.1591,78.76,94,75,3.44,VN,1634144559
282,alta floresta,-9.8756,-56.0861,95.13,35,32,6.24,BR,1634144559
283,panaba,21.2833,-88.2667,92.14,41,14,4.65,MX,1634144560
284,atar,20.5169,-13.0499,102.96,9,85,8.77,MR,1634144539
285,alexandria,31.2156,29.9553,76.03,68,0,12.75,EG,1634144419
286,biloela,-24.4167,150.5,69.01,86,48,8.63,AU,1634144560
287,maun,-19.9833,23.4167,79.34,8,0,7.38,BW,1634144561
288,sur,22.5667,59.5289,81.63,60,0,7.63,OM,1634144561
289,piacabucu,-10.4056,-36.4344,84.38,64,5,16.55,BR,1634144561
290,waverly,42.7392,-84.6208,68.85,69,1,10.36,US,1634144562
291,gushikawa,26.3544,127.8686,77.63,78,100,13.27,JP,1634144562
292,huilong,31.8111,121.655,75.61,93,89,7.27,CN,1634144563
293,alihe,50.5667,123.7167,41.92,89,77,5.37,CN,1634144563
294,eureka,40.8021,-124.1637,51.73,74,57,5.99,US,1634144564
295,bambous virieux,-20.3428,57.7575,73.65,88,40,5.75,MU,1634144564
296,ambon,-3.6954,128.1814,81.0,79,45,2.04,ID,1634144565
297,brockville,44.5834,-75.6826,67.95,86,63,5.99,CA,1634144304
298,saint-joseph,-21.3667,55.6167,73.15,87,43,5.88,RE,1634144408
299,grand gaube,-20.0064,57.6608,73.38,84,75,1.99,MU,1634144565
300,puerto escondido,15.85,-97.0667,86.2,68,47,4.0,MX,1634144566
301,lagos,6.5833,3.75,88.12,80,50,6.13,NG,1634144354
302,acarau,-2.8856,-40.12,87.03,55,76,20.58,BR,1634144409
303,bandarbeyla,9.4942,50.8122,79.23,82,38,10.69,SO,1634144566
304,luderitz,-26.6481,15.1594,60.33,83,56,2.59,NA,1634144567
305,kahului,20.8947,-156.47,76.84,92,97,8.99,US,1634144567
306,lerwick,60.1545,-1.1494,53.6,85,100,23.78,GB,1634144568
307,padang,-0.9492,100.3543,77.05,85,93,1.97,ID,1634144532
308,guerrero negro,27.9769,-114.0611,70.72,44,0,4.27,MX,1634144568
309,sabalgarh,26.25,77.4,80.55,33,0,2.75,IN,1634144569
310,ayacucho,-13.1583,-74.2239,75.06,29,75,4.61,PE,1634144569
311,mangai,-4.05,19.5333,76.12,75,62,1.63,CD,1634144569
312,tokur,53.1333,132.9,30.67,99,100,4.59,RU,1634144570
313,avera,33.194,-82.5271,77.79,53,40,4.99,US,1634144570
314,stavern,59.0,10.0333,47.17,68,100,11.86,NO,1634144570
315,llanes,43.4198,-4.7549,62.28,69,5,17.87,ES,1634144571
316,abay,49.6311,72.8539,26.98,58,98,6.11,KZ,1634144571
317,camacha,33.0833,-16.3333,71.01,60,20,9.22,PT,1634144572
318,nanortalik,60.1432,-45.2371,43.61,65,41,3.96,GL,1634144572
319,udachnyy,66.4167,112.4,16.32,95,100,6.71,RU,1634144573
320,ambulu,-8.345,113.6058,74.86,86,91,2.71,ID,1634144573
321,caravelas,-17.7125,-39.2481,77.22,80,83,6.49,BR,1634144574
322,sakakah,29.9697,40.2064,88.59,14,93,10.38,SA,1634144574
323,inirida,3.8653,-67.9239,87.98,69,39,1.23,CO,1634144574
324,polyarnyy,69.1989,33.4478,34.27,84,32,12.53,RU,1634144575
325,kedrovyy,56.1667,91.8167,25.21,72,88,2.55,RU,1634144575
326,koumac,-20.5667,164.2833,70.39,88,30,9.86,NC,1634144576
327,coahuayana,18.7333,-103.6833,88.95,59,75,3.62,MX,1634144576
328,ajdabiya,30.7554,20.2263,71.69,65,0,6.55,LY,1634144577
329,tonantins,-2.8731,-67.8022,98.06,40,60,2.24,BR,1634144577
330,tsevie,6.4261,1.2133,83.39,74,62,7.58,TG,1634144577
331,half moon bay,37.4636,-122.4286,57.34,65,90,5.75,US,1634144578
332,la palma,33.8464,-118.0467,66.29,35,1,0.0,US,1634144578
333,sobolevo,54.4299,31.8996,42.55,84,100,2.84,RU,1634144579
334,gamboma,-1.8764,15.8644,77.85,76,51,3.04,CG,1634144579
335,shimoda,34.6667,138.95,62.1,91,100,13.49,JP,1634144580
336,jumla,29.2747,82.1838,52.84,74,7,4.59,NP,1634144580
337,otjiwarongo,-20.4637,16.6477,82.58,11,0,11.27,NA,1634144580
338,alice springs,-23.7,133.8833,56.75,30,0,5.75,AU,1634144581
339,ahuimanu,21.4447,-157.8378,76.62,72,55,18.41,US,1634144582
340,prince rupert,54.3161,-130.3201,44.29,89,100,12.28,CA,1634144582
341,oyama,36.3,139.8,60.69,86,98,4.38,JP,1634144583
342,catamarca,-28.4696,-65.7852,80.1,61,17,4.0,AR,1634144584
343,sitka,57.0531,-135.33,40.78,95,100,8.05,US,1634144584
344,leninskoye,41.7589,69.3864,49.93,33,0,2.62,KZ,1634144585
345,alofi,-19.0595,-169.9187,73.27,66,13,7.87,NU,1634144585
346,port hawkesbury,45.6169,-61.3485,60.78,68,84,1.01,CA,1634144585
347,pathein,16.7833,94.7333,78.17,90,100,2.59,MM,1634144586
348,hamilton,39.1834,-84.5333,73.36,66,63,1.99,US,1634144458
349,chapleau,47.8405,-83.4034,61.99,89,100,2.1,CA,1634144458
350,jalu,29.0331,21.5482,78.57,33,0,9.35,LY,1634144587
351,beira,-19.8436,34.8389,72.99,71,0,11.23,MZ,1634144587
352,batagay-alyta,67.8006,130.4114,14.25,91,98,4.29,RU,1634144587
353,saint-augustin,51.226,-58.6502,57.15,45,0,2.51,CA,1634144588
354,ola,59.5833,151.2833,29.97,58,0,7.56,RU,1634144588
355,neryungri,56.6709,124.6491,15.91,77,100,10.27,RU,1634144589
356,okha,53.5739,142.9478,37.51,88,100,14.97,RU,1634144589
357,botou,38.0667,116.5667,58.21,60,8,1.97,CN,1634144589
358,mao,39.8885,4.2658,64.96,63,20,18.41,ES,1634144484
359,harbour breton,47.4833,-55.7983,55.0,68,24,11.77,CA,1634144590
360,marsh harbour,26.5412,-77.0636,81.79,71,82,10.27,BS,1634144590
361,kant,27.8,79.8,76.93,42,0,6.96,IN,1634144591
362,chicama,-7.8447,-79.1469,69.53,68,100,9.73,PE,1634144591
363,norsup,-16.0667,167.3833,78.17,85,69,5.88,VU,1634144591
364,fuyang,32.9,115.8167,63.63,65,23,7.99,CN,1634144592
365,tilichiki,60.4667,166.1,23.41,75,100,9.48,RU,1634144592
366,kavaratti,10.5669,72.642,81.77,83,100,19.57,IN,1634144593
367,coos bay,43.3665,-124.2179,48.34,99,90,8.05,US,1634144593
368,honiara,-9.4333,159.95,77.54,83,37,0.72,SB,1634144594
369,bojnurd,37.4747,57.329,62.22,15,1,4.94,IR,1634144594
370,imbituba,-28.24,-48.6703,72.73,79,98,16.33,BR,1634144594
371,aden,12.7794,45.0367,86.11,64,42,9.75,YE,1634144463
372,bambanglipuro,-7.95,110.2833,75.83,81,98,3.76,ID,1634144595
373,francisco beltrao,-26.0811,-53.055,81.03,46,39,8.61,BR,1634144526
374,bethel,41.3712,-73.414,67.78,86,13,4.83,US,1634144595
375,sagua la grande,22.8067,-80.0756,86.11,60,0,6.06,CU,1634144596
376,nieuw nickerie,5.95,-56.9833,83.73,72,54,10.63,SR,1634144596
377,santa marta de tormes,40.9506,-5.6272,63.72,29,0,1.99,ES,1634144597
378,gat,31.61,34.7642,77.47,61,4,13.62,IL,1634144400
379,namatanai,-3.6667,152.4333,80.31,75,98,7.16,PG,1634144597
380,madingou,-4.1536,13.55,82.81,65,94,5.86,CG,1634144598
381,portland,45.5234,-122.6762,45.64,94,90,5.99,US,1634144150
382,morbach,49.8167,7.1167,45.66,87,40,1.14,DE,1634144598
383,nalut,30.3333,10.85,79.07,24,45,8.23,LY,1634144537
384,sedro-woolley,48.5039,-122.2361,45.52,97,90,0.0,US,1634144599
385,waingapu,-9.6567,120.2641,79.03,64,81,2.53,ID,1634144599
386,zandvoort,52.3749,4.5341,54.45,73,75,9.22,NL,1634144600
387,vuktyl,63.8567,57.3094,43.48,90,100,11.18,RU,1634144600
388,port hedland,-20.3167,118.5667,68.05,60,12,6.91,AU,1634144600
389,kisesa,-3.0833,34.15,81.34,30,100,7.09,TZ,1634144601
390,flinders,-34.5833,150.8552,62.22,89,100,1.01,AU,1634144601
391,vilhena,-12.7406,-60.1458,90.34,40,61,4.76,BR,1634144602
392,fortuna,40.5982,-124.1573,50.29,69,90,1.99,US,1634144602
393,soyo,-6.1349,12.3689,78.21,80,67,11.61,AO,1634144602
394,cascais,38.6979,-9.4215,74.98,51,0,4.0,PT,1634144603
395,maraa,-1.8333,-65.3667,98.83,38,11,1.05,BR,1634144603
396,chilliwack,49.1747,-121.9443,44.37,97,100,1.3,CA,1634144603
397,manoel urbano,-8.8389,-69.2597,100.67,31,35,4.9,BR,1634144604
398,lafiagi,8.8667,5.4167,87.4,61,90,3.36,NG,1634144604
399,harper,4.375,-7.7169,81.54,78,40,9.93,LR,1634144605
400,nyurba,63.2842,118.3319,23.16,86,100,4.56,RU,1634144605
401,inverell,-29.7833,151.1167,56.1,93,43,5.01,AU,1634144419
402,wrzesnia,52.3251,17.5652,43.3,72,48,8.05,PL,1634144485
403,humberto de campos,-2.5983,-43.4611,90.97,47,66,11.77,BR,1634144606
404,ambilobe,-13.2,49.05,77.25,72,32,4.74,MG,1634144606
405,sulangan,11.1373,123.7228,83.48,73,98,0.16,PH,1634144606
406,airai,-8.9266,125.4092,62.55,89,69,1.12,TL,1634144607
407,humaita,-7.5061,-63.0208,100.04,34,85,5.17,BR,1634144607
408,nador,35.174,-2.9287,70.05,68,20,5.75,MA,1634144338
409,sorong,-0.8833,131.25,82.38,81,100,10.69,ID,1634144608
410,misratah,32.3754,15.0925,79.39,42,32,12.97,LY,1634144608
411,okhotsk,59.3833,143.3,19.42,70,0,17.2,RU,1634144608
412,gerash,27.6652,54.1371,78.01,27,1,5.32,IR,1634144609
413,hibbing,47.4272,-92.9377,55.02,94,90,10.36,US,1634144609
414,stornoway,58.2093,-6.3865,53.56,82,90,10.36,GB,1634144610
415,dawson creek,55.7666,-120.2362,42.19,45,2,9.55,CA,1634144610
416,san patricio,28.017,-97.5169,86.56,57,58,21.7,US,1634144610
417,kuala kedah,6.1,100.3,81.45,78,91,4.65,MY,1634144611
418,borovichi,58.3878,33.9155,43.56,87,96,3.85,RU,1634144611
419,albert,50.0009,2.651,54.39,68,0,4.61,FR,1634144612
420,paamiut,61.994,-49.6678,38.64,78,9,4.74,GL,1634144612
421,rio de janeiro,-22.9028,-43.2075,74.91,68,10,11.3,BR,1634144434
422,turinskaya sloboda,57.6232,64.3858,45.27,87,7,4.21,RU,1634144613
423,irbil,36.1926,44.0106,77.67,32,100,7.16,IQ,1634144353
424,ucluelet,48.9329,-125.5528,44.08,93,95,1.01,CA,1634144572
425,myitkyina,25.3833,97.4,79.47,80,7,1.01,MM,1634144613
426,kannangad,12.3081,75.1063,76.96,90,100,10.51,IN,1634144614
427,at-bashi,41.1702,75.8106,37.35,43,0,8.88,KG,1634144614
428,maceio,-9.6658,-35.7353,89.04,58,20,14.97,BR,1634144615
429,vostok,46.4856,135.8833,42.1,61,100,4.14,RU,1634144615
430,amapa,1.0,-52.0,97.34,30,9,4.7,BR,1634144615
431,yeniseysk,58.4497,92.1703,24.91,69,11,2.75,RU,1634144616
432,mangrol,21.1167,70.1167,84.74,70,2,5.01,IN,1634144616
433,pechora,65.1472,57.2244,43.45,91,100,10.18,RU,1634144617
434,kurilsk,45.2333,147.8833,47.5,82,4,7.9,RU,1634144617
435,oum hadjer,13.2954,19.6966,93.69,31,79,7.16,TD,1634144618
436,nongan,44.382,125.1685,55.6,68,96,12.71,CN,1634144618
437,sambava,-14.2667,50.1667,74.52,87,98,9.8,MG,1634144618
438,jardim,-21.4803,-56.1381,96.78,33,20,9.26,BR,1634144619
439,vila franca do campo,37.7167,-25.4333,72.01,72,100,7.14,PT,1634144619
440,klaksvik,62.2266,-6.589,52.72,89,99,28.1,FO,1634144620
441,ostrovnoy,68.0531,39.5131,41.59,80,81,4.09,RU,1634144620
442,naze,28.3667,129.4833,76.32,77,72,12.01,JP,1634144620
443,ust-kulom,61.6864,53.6902,42.55,81,97,7.4,RU,1634144621
444,nome,64.5011,-165.4064,27.16,94,100,3.96,US,1634144336
445,ulaanbaatar,47.9077,106.8832,19.53,86,0,2.24,MN,1634144526
446,juneau,58.3019,-134.4197,40.68,98,100,7.09,US,1634144370
447,tiznit,29.5833,-9.5,66.43,65,37,8.97,MA,1634144621
448,yumen,40.2833,97.2,43.92,38,2,13.98,CN,1634144622
449,zhezkazgan,47.8043,67.7144,43.88,36,84,11.88,KZ,1634144622
450,pomezeu,46.7833,22.2833,49.87,76,100,2.19,RO,1634144623
451,george town,5.4112,100.3354,82.17,82,20,1.99,MY,1634144207
452,constitucion,-35.3333,-72.4167,59.05,67,90,6.46,CL,1634144624
453,along,28.1667,94.7667,71.56,79,0,2.17,IN,1634144624
454,cabedelo,-6.9811,-34.8339,82.45,65,88,12.19,BR,1634144469
455,berlevag,70.8578,29.0864,37.35,81,75,16.11,NO,1634144624
456,atbasar,51.8,68.3333,45.68,67,100,2.44,KZ,1634144625
457,katsuura,35.1333,140.3,64.22,89,99,15.1,JP,1634144625
458,houma,29.5958,-90.7195,84.74,75,68,11.03,US,1634144386
459,svetlogorsk,52.6333,29.7333,44.15,76,100,4.76,BY,1634144626
460,kibondo,-3.5864,30.7203,75.15,35,85,3.53,TZ,1634144626
461,sierra vista,31.5545,-110.3037,56.82,29,1,3.44,US,1634144626
462,barranco de loba,8.946,-74.1065,83.97,74,99,3.6,CO,1634144627
463,porosozero,62.7191,32.727,41.59,95,100,3.69,RU,1634144627
464,rio gallegos,-51.6226,-69.2181,58.78,26,50,21.16,AR,1634144502
465,deulgaon raja,20.0167,76.0333,74.43,69,64,5.1,IN,1634144628
466,cabo san lucas,22.8909,-109.9124,83.46,76,75,8.99,MX,1634144628
467,biltine,14.5333,20.9167,90.79,36,82,9.69,TD,1634144629
468,damietta,31.4165,31.8133,75.9,69,0,13.44,EG,1634144629
469,marsa matruh,31.3525,27.2453,74.8,74,16,11.27,EG,1634144630
470,isangel,-19.55,169.2667,74.79,93,98,11.32,VU,1634144630
471,kumluca,36.3703,30.2869,70.47,71,93,1.81,TR,1634144630
472,anqing,30.5092,117.0506,67.24,86,100,6.2,CN,1634144429
473,kutum,14.2,24.6667,77.0,54,99,7.34,SD,1634144631
474,ordynskoye,54.3656,81.8994,35.35,99,100,2.91,RU,1634144631
475,magan,39.9683,-3.931,77.97,44,0,3.0,ES,1634144632
476,oriximina,-1.7656,-55.8661,100.33,29,12,5.46,BR,1634144632
477,parvatsar,26.8833,74.7667,78.28,22,0,4.56,IN,1634144633
478,nara,34.6851,135.8049,65.95,82,100,3.69,JP,1634144633
479,segezha,63.7415,34.3222,43.11,86,100,5.28,RU,1634144634
480,denpasar,-8.65,115.2167,77.72,83,20,1.14,ID,1634144539
481,mentakab,3.4865,102.3516,77.0,86,68,0.22,MY,1634144634
482,college,64.8569,-147.8028,26.78,76,90,5.75,US,1634144634
483,gizo,-8.103,156.8419,82.35,76,86,5.64,SB,1634144635
484,manta,-0.95,-80.7333,76.1,73,98,8.95,EC,1634144635
485,vila,42.0304,-8.1588,66.06,37,0,0.98,PT,1634144636
486,bilibino,68.0546,166.4372,-5.35,96,24,4.9,RU,1634144636
487,mezen,65.8522,44.24,41.76,95,100,6.71,RU,1634144636
488,fairbanks,64.8378,-147.7164,24.96,79,96,2.15,US,1634144566
489,marathon,44.9,-89.7668,58.21,94,75,1.01,US,1634144637
490,freeport,40.6576,-73.5832,69.3,71,90,3.0,US,1634144591
491,batasan,12.7667,120.7833,80.65,79,100,1.36,PH,1634144637
492,tambacounda,13.7539,-13.7586,94.89,31,89,4.09,SN,1634144638
493,balkanabat,39.5108,54.3671,68.99,16,28,15.05,TM,1634144638
494,yerbogachen,61.2767,108.0108,20.28,69,100,3.47,RU,1634144639
495,laguna,38.421,-121.4238,58.64,36,90,4.0,US,1634144639
496,camalu,30.85,-116.0667,71.42,25,0,4.34,MX,1634144639
497,noyabrsk,63.1994,75.4507,33.03,98,100,13.22,RU,1634144640
498,iqaluit,63.7506,-68.5145,38.7,64,39,15.01,CA,1634144476
499,nizwa,22.9333,57.5333,85.73,16,0,6.33,OM,1634144641
500,embu,-23.6489,-46.8522,77.34,78,19,2.3,BR,1634144641
501,salihorsk,52.7876,27.5415,43.5,65,100,1.14,BY,1634144642
502,maarianhamina,60.0973,19.9348,37.26,93,40,2.3,AX,1634144642
503,arlit,18.7369,7.3853,95.05,7,32,4.41,NE,1634144643
504,sri aman,1.2376,111.4621,77.72,90,100,1.45,MY,1634144643
505,tawang,27.5833,91.8667,51.39,82,3,5.66,IN,1634144644
506,floresta,-8.6011,-38.5686,99.43,14,52,5.68,BR,1634144644
507,daru,-9.0763,143.2092,78.75,87,96,8.28,PG,1634144645
508,mehamn,71.0357,27.8492,39.96,70,61,26.24,NO,1634144590
509,businga,3.3333,20.8833,78.87,76,100,2.51,CD,1634144645
510,vila velha,-20.3297,-40.2925,75.87,75,41,8.1,BR,1634144605
511,teknaf,20.8624,92.3058,79.09,90,99,3.69,BD,1634144646
512,ridgecrest,35.6225,-117.6709,57.69,20,6,1.99,US,1634144369
513,olafsvik,64.8945,-23.7142,40.12,69,80,27.47,IS,1634144646
514,krasnaya yaruga,50.8008,35.6583,55.51,68,100,8.05,RU,1634144647
515,cadillac,44.2519,-85.4012,61.36,94,90,6.91,US,1634144598
516,mont-dore,-22.2833,166.5833,73.0,99,17,5.35,NC,1634144647
517,fenyi,27.8112,114.6681,64.04,93,100,2.59,CN,1634144648
518,tiarei,-17.5333,-149.3333,75.22,77,97,15.82,PF,1634144648
519,denizli,37.8402,29.0698,63.45,51,55,2.06,TR,1634144649
520,loubomo,-4.1997,12.6739,77.74,76,96,7.7,CG,1634144649
521,mount gambier,-37.8333,140.7667,39.11,93,75,5.75,AU,1634144649
522,tezu,27.9167,96.1667,77.45,63,0,3.87,IN,1634144650
523,aitape,-3.1374,142.3475,77.49,91,90,2.95,PG,1634144650
524,ramsar,36.9226,50.6426,71.73,57,42,6.96,IR,1634144650
525,zabkowice slaskie,50.5897,16.8124,41.9,92,73,5.23,PL,1634144651
526,kalmunai,7.4167,81.8167,81.52,76,73,3.6,LK,1634144651
527,kollam,8.8833,76.6,82.27,84,87,4.88,IN,1634144557
528,kaluga,54.5,35.5,49.51,99,100,5.97,RU,1634144652
529,ilebo,-4.3167,20.5833,80.28,60,70,1.83,CD,1634144652
530,hami,42.8,93.45,47.3,35,18,9.06,CN,1634144653
531,shache,38.4167,77.2406,52.07,22,50,2.86,CN,1634144653
532,honningsvag,70.9821,25.9704,41.34,73,90,31.63,NO,1634144653
533,moanda,-1.5575,13.2178,72.48,95,57,5.1,GA,1634144654
534,santa cruz,-17.8,-63.1667,89.65,48,40,29.93,BO,1634144359
535,tecoanapa,16.5167,-98.75,86.74,66,9,3.8,MX,1634144655
536,chapais,49.7834,-74.8492,66.24,73,99,3.36,CA,1634144655
537,mackenzie,55.2999,-123.1698,32.88,85,96,6.58,CA,1634144458
538,xichang,27.8964,102.2634,63.66,74,77,3.8,CN,1634144656
539,hailar,49.2,119.7,40.3,84,38,13.13,CN,1634144656
540,tatarskaya kargala,51.9495,55.1731,39.22,47,94,7.07,RU,1634144656
541,bonthe,7.5264,-12.505,83.93,72,59,10.4,SL,1634144657
542,ayan,56.45,138.1667,32.9,40,100,10.85,RU,1634144657
543,adelaide,-34.9333,138.6,51.84,72,0,1.99,AU,1634144658
544,wattegama,6.7989,81.4808,78.49,74,79,1.61,LK,1634144658
545,teseney,15.11,36.6575,88.54,41,87,6.76,ER,1634144659
546,samarinda,-0.5,117.15,75.78,97,89,1.19,ID,1634144659
547,severnoye,56.3491,78.3619,35.46,99,100,4.92,RU,1634144659
548,komsomolskiy,40.4272,71.7189,50.72,57,0,9.22,UZ,1634144660
549,socorro,31.6546,-106.3033,63.39,24,1,6.91,US,1634144660
550,smolenka,52.1352,113.4974,33.87,69,40,4.47,RU,1634144660
551,arecibo,18.4724,-66.7157,88.52,78,99,3.0,PR,1634144661
552,picui,-6.5106,-36.3469,93.83,26,63,17.78,BR,1634144661
553,yimnon,38.4333,23.8833,64.65,75,66,5.01,GR,1634144662
554,beitbridge,-22.2167,30.0,86.11,14,0,7.7,ZW,1634144662
555,porbandar,21.6422,69.6093,85.24,61,0,8.46,IN,1634144663
556,matara,5.9485,80.5353,79.48,85,70,10.36,LK,1634144663
557,tubuala,9.5167,-79.0333,77.38,78,47,1.03,PA,1634144664
558,innisfail,-17.5333,146.0333,73.99,71,48,2.33,AU,1634144664
559,ancud,-41.8697,-73.8203,51.33,92,100,23.64,CL,1634144664
560,port blair,11.6667,92.75,81.09,86,100,13.42,IN,1634144665
561,chato,-2.6378,31.7669,72.79,67,14,5.55,TZ,1634144665
562,birao,10.2849,22.7882,75.51,79,96,3.94,CF,1634144666
563,hazorasp,41.3194,61.0742,48.04,22,0,10.02,UZ,1634144666
